[
  {
    "NAME": "WASHINGTON DC VA MEDICAL CENTER",
    "ADDRESS": "50 IRVING ST NW",
    "CITY": "WASHINGTON",
    "STATE": "DC",
    "ZIP": 20422,
    "TELEPHONE": "(202) 745-8000",
    "TYPE": "MILITARY",
    "COUNTY": "DISTRICT OF COLUMBIA",
    "COUNTRY": "USA",
    "LATITUDE": 38.928923,
    "LONGITUDE": -77.010732,
    "WEBSITE": "https://www.washingtondc.va.gov/",
    "ALT_NAME": "NOT AVAILABLE",
    "OWNER": "GOVERNMENT - FEDERAL",
    "BEDS": -999,
    "TRAUMA": "NOT AVAILABLE",
    "HELIPAD": "NOT AVAILABLE"
  },
  {
    "NAME": "MEDSTAR-GEORGETOWN UNIVERSITY MEDICAL CENTER",
    "ADDRESS": "3800 RESERVOIR ROAD, NW",
    "CITY": "WASHINGTON",
    "STATE": "DC",
    "ZIP": 20007,
    "TELEPHONE": "(202) 444-2000",
    "TYPE": "GENERAL ACUTE CARE",
    "COUNTY": "DISTRICT OF COLUMBIA",
    "COUNTRY": "USA",
    "LATITUDE": 38.91195851,
    "LONGITUDE": -77.07525457,
    "WEBSITE": "http://www.medstargeorgetown.org/#q={}",
    "ALT_NAME": "NOT AVAILABLE",
    "OWNER": "GOVERNMENT - STATE",
    "BEDS": 609,
    "TRAUMA": "NOT AVAILABLE",
    "HELIPAD": "Y"
  },
  {
    "NAME": "CHILDREN'S NATIONAL MEDICAL CENTER",
    "ADDRESS": "111 MICHIGAN AVENUE NW",
    "CITY": "WASHINGTON",
    "STATE": "DC",
    "ZIP": 20010,
    "TELEPHONE": "NOT AVAILABLE",
    "TYPE": "CHILDREN",
    "COUNTY": "DISTRICT OF COLUMBIA",
    "COUNTRY": "USA",
    "LATITUDE": 38.92726607,
    "LONGITUDE": -77.01439372,
    "WEBSITE": "http://www.childrensnational.org/",
    "ALT_NAME": "NOT AVAILABLE",
    "OWNER": "NON-PROFIT",
    "BEDS": 313,
    "TRAUMA": "I",
    "HELIPAD": "Y"
  },
  {
    "NAME": "MEDSTAR NATIONAL REHABILITATION HOSPITAL",
    "ADDRESS": "102 IRVING STREET NW",
    "CITY": "WASHINGTON",
    "STATE": "DC",
    "ZIP": 20010,
    "TELEPHONE": "NOT AVAILABLE",
    "TYPE": "REHABILITATION",
    "COUNTY": "DISTRICT OF COLUMBIA",
    "COUNTRY": "USA",
    "LATITUDE": 38.93054252,
    "LONGITUDE": -77.01334348,
    "WEBSITE": "http://www.nrhrehab.org/",
    "ALT_NAME": "NOT AVAILABLE",
    "OWNER": "NON-PROFIT",
    "BEDS": 137,
    "TRAUMA": "NOT AVAILABLE",
    "HELIPAD": "NOT AVAILABLE"
  },
  {
    "NAME": "MEDSTAR WASHINGTON HOSPITAL CENTER",
    "ADDRESS": "110 IRVING STREET NW",
    "CITY": "WASHINGTON",
    "STATE": "DC",
    "ZIP": 20010,
    "TELEPHONE": "NOT AVAILABLE",
    "TYPE": "GENERAL ACUTE CARE",
    "COUNTY": "DISTRICT OF COLUMBIA",
    "COUNTRY": "USA",
    "LATITUDE": 38.92965194,
    "LONGITUDE": -77.0156483,
    "WEBSITE": "http://www.whcenter.org/",
    "ALT_NAME": "NOT AVAILABLE",
    "OWNER": "NON-PROFIT",
    "BEDS": 926,
    "TRAUMA": "I",
    "HELIPAD": "Y"
  },
  {
    "NAME": "GEORGE WASHINGTON UNIVERSITY HOSPITAL",
    "ADDRESS": "900 23RD STREET NW",
    "CITY": "WASHINGTON",
    "STATE": "DC",
    "ZIP": 20037,
    "TELEPHONE": "NOT AVAILABLE",
    "TYPE": "GENERAL ACUTE CARE",
    "COUNTY": "DISTRICT OF COLUMBIA",
    "COUNTRY": "USA",
    "LATITUDE": 38.90131901,
    "LONGITUDE": -77.05063668,
    "WEBSITE": "http://gwhospital.com/",
    "ALT_NAME": "NOT AVAILABLE",
    "OWNER": "PROPRIETARY",
    "BEDS": 339,
    "TRAUMA": "I",
    "HELIPAD": "NOT AVAILABLE"
  },
  {
    "NAME": "HOWARD UNIVERSITY HOSPITAL",
    "ADDRESS": "2041 GEORGIA AVENUE NW",
    "CITY": "WASHINGTON",
    "STATE": "DC",
    "ZIP": 20001,
    "TELEPHONE": "NOT AVAILABLE",
    "TYPE": "GENERAL ACUTE CARE",
    "COUNTY": "DISTRICT OF COLUMBIA",
    "COUNTRY": "USA",
    "LATITUDE": 38.91754841,
    "LONGITUDE": -77.02009375,
    "WEBSITE": "http://www.huhosp.org/",
    "ALT_NAME": "NOT AVAILABLE",
    "OWNER": "NON-PROFIT",
    "BEDS": 264,
    "TRAUMA": "I",
    "HELIPAD": "NOT AVAILABLE"
  },
  {
    "NAME": "PROVIDENCE HOSPITAL",
    "ADDRESS": "1150 VARNUM STREET NE",
    "CITY": "WASHINGTON",
    "STATE": "DC",
    "ZIP": 20017,
    "TELEPHONE": "NOT AVAILABLE",
    "TYPE": "GENERAL ACUTE CARE",
    "COUNTY": "DISTRICT OF COLUMBIA",
    "COUNTRY": "USA",
    "LATITUDE": 38.94328726,
    "LONGITUDE": -76.99122933,
    "WEBSITE": "http://www.provhosp.org/",
    "ALT_NAME": "NOT AVAILABLE",
    "OWNER": "NON-PROFIT",
    "BEDS": 408,
    "TRAUMA": "NOT AVAILABLE",
    "HELIPAD": "NOT AVAILABLE"
  },
  {
    "NAME": "SIBLEY MEMORIAL HOSPITAL",
    "ADDRESS": "5255 LOUGHBORO ROAD NW",
    "CITY": "WASHINGTON",
    "STATE": "DC",
    "ZIP": 20016,
    "TELEPHONE": "NOT AVAILABLE",
    "TYPE": "GENERAL ACUTE CARE",
    "COUNTY": "DISTRICT OF COLUMBIA",
    "COUNTRY": "USA",
    "LATITUDE": 38.9362208,
    "LONGITUDE": -77.1092389,
    "WEBSITE": "http://www.sibley.org/",
    "ALT_NAME": "NOT AVAILABLE",
    "OWNER": "NON-PROFIT",
    "BEDS": 318,
    "TRAUMA": "NOT AVAILABLE",
    "HELIPAD": "Y"
  },
  {
    "NAME": "PSYCHIATRIC INSTITUTE OF WASHINGTON",
    "ADDRESS": "4228 WISCONSIN AVENUE NW",
    "CITY": "WASHINGTON",
    "STATE": "DC",
    "ZIP": 20016,
    "TELEPHONE": "NOT AVAILABLE",
    "TYPE": "PSYCHIATRIC",
    "COUNTY": "DISTRICT OF COLUMBIA",
    "COUNTRY": "USA",
    "LATITUDE": 38.94390262,
    "LONGITUDE": -77.07796244,
    "WEBSITE": "http://www.psychinstitute.com/",
    "ALT_NAME": "NOT AVAILABLE",
    "OWNER": "PROPRIETARY",
    "BEDS": 75,
    "TRAUMA": "NOT AVAILABLE",
    "HELIPAD": "Y"
  },
  {
    "NAME": "BRIDGEPOINT HOSPITAL CAPITOL HILL",
    "ADDRESS": "700 CONSTITUTION AVENUE NE",
    "CITY": "WASHINGTON",
    "STATE": "DC",
    "ZIP": 20002,
    "TELEPHONE": "(202) 546-5700",
    "TYPE": "LONG TERM CARE",
    "COUNTY": "DISTRICT OF COLUMBIA",
    "COUNTRY": "USA",
    "LATITUDE": 38.89292142,
    "LONGITUDE": -76.99586342,
    "WEBSITE": "http://www.bridgepointhealthcare.com/contact-us/",
    "ALT_NAME": "NOT AVAILABLE",
    "OWNER": "PROPRIETARY",
    "BEDS": 177,
    "TRAUMA": "NOT AVAILABLE",
    "HELIPAD": "N"
  },
  {
    "NAME": "BRIDGEPOINT NATIONAL HARBOR",
    "ADDRESS": "4601 MARTIN LUTHER KING JR. AVENUE, SW",
    "CITY": "WASHINGTON",
    "STATE": "DC",
    "ZIP": 20032,
    "TELEPHONE": "(202) 574-5700",
    "TYPE": "GENERAL ACUTE CARE",
    "COUNTY": "DISTRICT OF COLUMBIA",
    "COUNTRY": "USA",
    "LATITUDE": 38.82512896,
    "LONGITUDE": -77.01314839,
    "WEBSITE": "http://www.bridgepointhealthcare.com/",
    "ALT_NAME": "NOT AVAILABLE",
    "OWNER": "NOT AVAILABLE",
    "BEDS": 82,
    "TRAUMA": "NOT AVAILABLE",
    "HELIPAD": "NOT AVAILABLE"
  },
  {
    "NAME": "HOSPITAL FOR SICK CHILDREN",
    "ADDRESS": "1731 BUNKER HILL ROAD, NE",
    "CITY": "WASHINGTON",
    "STATE": "DC",
    "ZIP": 20017,
    "TELEPHONE": "(202) 832-4400",
    "TYPE": "CHILDREN",
    "COUNTY": "DISTRICT OF COLUMBIA",
    "COUNTRY": "USA",
    "LATITUDE": 38.94116394,
    "LONGITUDE": -76.9808448,
    "WEBSITE": "NOT AVAILABLE",
    "ALT_NAME": "NOT AVAILABLE",
    "OWNER": "NOT AVAILABLE",
    "BEDS": 130,
    "TRAUMA": "NOT AVAILABLE",
    "HELIPAD": "NOT AVAILABLE"
  },
  {
    "NAME": "CHILDREN'S NATIONAL EMERGENCY DEPARTMENT AT UNITED MEDICAL CENTER",
    "ADDRESS": "1310 SOUTHERN AVENUE, SE",
    "CITY": "WASHINGTON",
    "STATE": "DC",
    "ZIP": 20032,
    "TELEPHONE": "(202) 574-6000",
    "TYPE": "GENERAL ACUTE CARE",
    "COUNTY": "DISTRICT OF COLUMBIA",
    "COUNTRY": "USA",
    "LATITUDE": 38.8359557,
    "LONGITUDE": -76.98498477,
    "WEBSITE": "http://www.united-medicalcenter.com/",
    "ALT_NAME": "NOT AVAILABLE",
    "OWNER": "NOT AVAILABLE",
    "BEDS": 234,
    "TRAUMA": "NOT AVAILABLE",
    "HELIPAD": "Y"
  },
  {
    "NAME": "SAINT ELIZABETHS HOSPITAL",
    "ADDRESS": "1100 ALABAMA AVENUE SE",
    "CITY": "WASHINGTON",
    "STATE": "DC",
    "ZIP": 20032,
    "TELEPHONE": "(202) 562-4000",
    "TYPE": "PSYCHIATRIC",
    "COUNTY": "DISTRICT OF COLUMBIA",
    "COUNTRY": "USA",
    "LATITUDE": 38.84792787,
    "LONGITUDE": -76.98825527,
    "WEBSITE": "http://dmh.dc.gov/page/saint-elizabeths-hospital",
    "ALT_NAME": "NOT AVAILABLE",
    "OWNER": "GOVERNMENT - LOCAL",
    "BEDS": 292,
    "TRAUMA": "NOT AVAILABLE",
    "HELIPAD": "NOT AVAILABLE"
  }
]
